{"index":{"_index":"hi-ga-politieke-tijdschriften-plaatsnaam","_id":"16"}}
{"id":16,"placeId":"PL00016","placeName":"Haarlem","country":"Netherlands","countryGeoCode":"NL","latitude":52.38084,"longitude":4.63683,"geoNameURI":"http://sws.geonames.org/2755003/"}
{"index":{"_index":"hi-ga-politieke-tijdschriften-plaatsnaam","_id":"20"}}
{"id":20,"placeId":"PL00020","placeName":"Leiden","country":"Netherlands","countryGeoCode":"NL","latitude":52.15833,"longitude":4.49306,"geoNameURI":"http://sws.geonames.org/2751773/"}
{"index":{"_index":"hi-ga-politieke-tijdschriften-plaatsnaam","_id":"21"}}
{"id":21,"placeId":"PL00021","placeName":"Maastricht","country":"Netherlands","countryGeoCode":"NL","latitude":50.84833,"longitude":5.68889,"geoNameURI":"http://sws.geonames.org/2751283/"}
{"index":{"_index":"hi-ga-politieke-tijdschriften-plaatsnaam","_id":"1"}}
{"id":1,"placeId":"PL00001","placeName":"'s-Hertogenbosch","country":"Netherlands","countryGeoCode":"NL","latitude":51.69917,"longitude":5.30417,"geoNameURI":"http://sws.geonames.org/2747351/"}
{"index":{"_index":"hi-ga-politieke-tijdschriften-plaatsnaam","_id":"17"}}
{"id":17,"placeId":"PL00017","placeName":"Hoorn","country":"Netherlands","countryGeoCode":"NL","latitude":52.64312,"longitude":5.05779,"geoNameURI":"http://sws.geonames.org/2753635/"}
{"index":{"_index":"hi-ga-politieke-tijdschriften-plaatsnaam","_id":"26"}}
{"id":26,"placeId":"PL00026","placeName":"Sneek","country":"Netherlands","countryGeoCode":"NL","latitude":53.03297,"longitude":5.6589,"geoNameURI":"http://sws.geonames.org/2747063/"}
{"index":{"_index":"hi-ga-politieke-tijdschriften-plaatsnaam","_id":"30"}}
{"id":30,"placeId":"PL00030","placeName":"Zaltbommel","country":"Netherlands","countryGeoCode":"NL","latitude":51.81,"longitude":5.24444,"geoNameURI":"http://sws.geonames.org/2744102/"}
{"index":{"_index":"hi-ga-politieke-tijdschriften-plaatsnaam","_id":"10"}}
{"id":10,"placeId":"PL00010","placeName":"Dordrecht","country":"Netherlands","countryGeoCode":"NL","latitude":51.81,"longitude":4.67361,"geoNameURI":"http://sws.geonames.org/2756669/"}
{"index":{"_index":"hi-ga-politieke-tijdschriften-plaatsnaam","_id":"6"}}
{"id":6,"placeId":"PL00006","placeName":"Breda","country":"Netherlands","countryGeoCode":"NL","latitude":51.58656,"longitude":4.77596,"geoNameURI":"http://sws.geonames.org/2758401/"}
{"index":{"_index":"hi-ga-politieke-tijdschriften-plaatsnaam","_id":"7"}}
{"id":7,"placeId":"PL00007","placeName":"Burgsteinfurt","country":"Germany","countryGeoCode":"DE","latitude":52.14839,"longitude":7.33307,"geoNameURI":"http://sws.geonames.org/2941103/"}
{"index":{"_index":"hi-ga-politieke-tijdschriften-plaatsnaam","_id":"11"}}
{"id":11,"placeId":"PL00011","placeName":"Emmerich","country":"Germany","countryGeoCode":"DE","latitude":51.83933,"longitude":6.24792,"geoNameURI":"http://sws.geonames.org/2930509/"}
{"index":{"_index":"hi-ga-politieke-tijdschriften-plaatsnaam","_id":"31"}}
{"id":31,"placeId":"PL00031","placeName":"Zierikzee","country":"Netherlands","countryGeoCode":"NL","latitude":51.65,"longitude":3.91944,"geoNameURI":"http://sws.geonames.org/2743913/"}
{"index":{"_index":"hi-ga-politieke-tijdschriften-plaatsnaam","_id":"27"}}
{"id":27,"placeId":"PL00027","placeName":"Utrecht","country":"Netherlands","countryGeoCode":"NL","latitude":52.09083,"longitude":5.12222,"geoNameURI":"http://sws.geonames.org/2745912/"}
{"index":{"_index":"hi-ga-politieke-tijdschriften-plaatsnaam","_id":"8"}}
{"id":8,"placeId":"PL00008","placeName":"Delft","country":"Netherlands","countryGeoCode":"NL","latitude":52.00667,"longitude":4.35556,"geoNameURI":"http://sws.geonames.org/2757345/"}
{"index":{"_index":"hi-ga-politieke-tijdschriften-plaatsnaam","_id":"32"}}
{"id":32,"placeId":"PL00032","placeName":"Zwolle","country":"Netherlands","countryGeoCode":"NL","latitude":52.5125,"longitude":6.09444,"geoNameURI":"http://sws.geonames.org/2743477/"}
{"index":{"_index":"hi-ga-politieke-tijdschriften-plaatsnaam","_id":"24"}}
{"id":24,"placeId":"PL00024","placeName":"Nijmegen","country":"Netherlands","countryGeoCode":"NL","latitude":51.8425,"longitude":5.85278,"geoNameURI":"http://sws.geonames.org/2750053/"}
{"index":{"_index":"hi-ga-politieke-tijdschriften-plaatsnaam","_id":"4"}}
{"id":4,"placeId":"PL00004","placeName":"Anholt","country":"Germany","countryGeoCode":"DE","latitude":5185111.0,"longitude":642488.0,"geoNameURI":"http://sws.geonames.org/2956040/"}
{"index":{"_index":"hi-ga-politieke-tijdschriften-plaatsnaam","_id":"12"}}
{"id":12,"placeId":"PL00012","placeName":"Goes","country":"Netherlands","countryGeoCode":"NL","latitude":51.50417,"longitude":3.88889,"geoNameURI":"http://sws.geonames.org/2755476/"}
{"index":{"_index":"hi-ga-politieke-tijdschriften-plaatsnaam","_id":"28"}}
{"id":28,"placeId":"PL00028","placeName":"West-Zaandam","country":"Netherlands","countryGeoCode":"NL","latitude":5243854.0,"longitude":482643.0,"geoNameURI":""}
{"index":{"_index":"hi-ga-politieke-tijdschriften-plaatsnaam","_id":"29"}}
{"id":29,"placeId":"PL00029","placeName":"Zaandam","country":"Netherlands","countryGeoCode":"NL","latitude":52.43854,"longitude":4.82643,"geoNameURI":"http://sws.geonames.org/2744118/"}
{"index":{"_index":"hi-ga-politieke-tijdschriften-plaatsnaam","_id":"13"}}
{"id":13,"placeId":"PL00013","placeName":"Gouda","country":"Netherlands","countryGeoCode":"NL","latitude":52.01667,"longitude":4.70833,"geoNameURI":"http://sws.geonames.org/2755420/"}
{"index":{"_index":"hi-ga-politieke-tijdschriften-plaatsnaam","_id":"5"}}
{"id":5,"placeId":"PL00005","placeName":"Bergen op Zoom","country":"Netherlands","countryGeoCode":"NL","latitude":51.495,"longitude":4.29167,"geoNameURI":"http://sws.geonames.org/2759145/"}
{"index":{"_index":"hi-ga-politieke-tijdschriften-plaatsnaam","_id":"25"}}
{"id":25,"placeId":"PL00025","placeName":"Rotterdam","country":"Netherlands","countryGeoCode":"NL","latitude":51.88246,"longitude":4.28784,"geoNameURI":"http://sws.geonames.org/2747890/"}
{"index":{"_index":"hi-ga-politieke-tijdschriften-plaatsnaam","_id":"9"}}
{"id":9,"placeId":"PL00009","placeName":"Den Haag","country":"Netherlands","countryGeoCode":"NL","latitude":52.07667,"longitude":4.29861,"geoNameURI":"http://sws.geonames.org/2747373/"}
{"index":{"_index":"hi-ga-politieke-tijdschriften-plaatsnaam","_id":"2"}}
{"id":2,"placeId":"PL00002","placeName":"Alkmaar","country":"Netherlands","countryGeoCode":"NL","latitude":52.63167,"longitude":4.74861,"geoNameURI":"http://sws.geonames.org/2759899/"}
{"index":{"_index":"hi-ga-politieke-tijdschriften-plaatsnaam","_id":"14"}}
{"id":14,"placeId":"PL00014","placeName":"Grave","country":"Netherlands","countryGeoCode":"NL","latitude":51.75902,"longitude":5.73882,"geoNameURI":"http://sws.geonames.org/2755358/"}
{"index":{"_index":"hi-ga-politieke-tijdschriften-plaatsnaam","_id":"18"}}
{"id":18,"placeId":"PL00018","placeName":"Kampen","country":"Netherlands","countryGeoCode":"NL","latitude":52.555,"longitude":5.91111,"geoNameURI":"http://sws.geonames.org/2753106/"}
{"index":{"_index":"hi-ga-politieke-tijdschriften-plaatsnaam","_id":"22"}}
{"id":22,"placeId":"PL00022","placeName":"Meppel","country":"Netherlands","countryGeoCode":"NL","latitude":52.69583,"longitude":6.19444,"geoNameURI":"http://sws.geonames.org/2750947/"}
{"index":{"_index":"hi-ga-politieke-tijdschriften-plaatsnaam","_id":"23"}}
{"id":23,"placeId":"PL00023","placeName":"Middelburg","country":"Netherlands","countryGeoCode":"NL","latitude":51.5,"longitude":3.61389,"geoNameURI":"http://sws.geonames.org/2750896/"}
{"index":{"_index":"hi-ga-politieke-tijdschriften-plaatsnaam","_id":"19"}}
{"id":19,"placeId":"PL00019","placeName":"Leeuwarden","country":"Netherlands","countryGeoCode":"NL","latitude":53.20139,"longitude":5.80859,"geoNameURI":"http://sws.geonames.org/2751792/"}
{"index":{"_index":"hi-ga-politieke-tijdschriften-plaatsnaam","_id":"15"}}
{"id":15,"placeId":"PL00015","placeName":"Groningen","country":"Netherlands","countryGeoCode":"NL","latitude":53.21917,"longitude":6.56667,"geoNameURI":"http://sws.geonames.org/2755251/"}
{"index":{"_index":"hi-ga-politieke-tijdschriften-plaatsnaam","_id":"3"}}
{"id":3,"placeId":"PL00003","placeName":"Amsterdam","country":"Netherlands","countryGeoCode":"NL","latitude":52.37302,"longitude":4.89856,"geoNameURI":"http://sws.geonames.org/2759793/"}
